{
	"type": "FeatureCollection",
	"features": [
		{
			"type": "Feature",
			"geometry": {
				"type": "Point",
				"coordinates": [121.506296, 25.136298]
			},
			"properties": {
				"name": "北投分館",
				"address": "112臺北市北投區光明路251號",
				"tel": "2897-7682",
				"fax": "2897-8538"
			}
		},
		{
			"type": "Feature",
			"geometry": {
				"type": "Point",
				"coordinates": [121.4894972, 25.1410198]
			},
			"properties": {
				"name": "稻香分館",
				"address": "112臺北市北投區稻香路81號7-9樓",
				"tel": "2894-0662",
				"fax": "2894-7004"
			}
		},
		{
			"type": "Feature",
			"geometry": {
				"type": "Point",
				"coordinates": [121.5227629, 25.1130643]
			},
			"properties": {
				"name": "石牌分館",
				"address": "112臺北市北投區明德路208巷5號3-10樓",
				"tel": "2823-9634",
				"fax": "2823-9864"
			}
		},
		{
			"type": "Feature",
			"geometry": {
				"type": "Point",
				"coordinates": [121.5072462, 25.1279397]
			},
			"properties": {
				"name": "清江分館",
				"address": "112臺北市北投區公館路198號3樓",
				"tel": "2896-0315",
				"fax": "2894-7008"
			}
		},
		{
			"type": "Feature",
			"geometry": {
				"type": "Point",
				"coordinates": [121.5048034, 25.1200209]
			},
			"properties": {
				"name": "吉利分館",
				"address": "112臺北市北投區立農街1段366號5-8樓",
				"tel": "2820-1633",
				"fax": "2820-1627"
			}
		},
		{
			"type": "Feature",
			"geometry": {
				"type": "Point",
				"coordinates": [121.517176, 25.118068]
			},
			"properties": {
				"name": "永明民眾閱覽室",
				"address": "112臺北市北投區石牌路2段115號7-8樓",
				"tel": "2823-4141",
				"fax": "2823-4140"
			}
		},
		{
			"type": "Feature",
			"geometry": {
				"type": "Point",
				"coordinates": [121.4931623, 25.1456025]
			},
			"properties": {
				"name": "秀山民眾閱覽室",
				"address": "112臺北市北投區中和街534號5-9樓",
				"tel": "2892-1475",
				"fax": "2892-1491"
			}
		},
		{
			"type": "Feature",
			"geometry": {
				"type": "Point",
				"coordinates": [121.5143859, 25.1195749]
			},
			"properties": {
				"name": "陽明借還書工作站",
				"address": "112臺北市北投區立農街二段155號",
				"tel": "2822-1781",
				"fax": "2826-2038"
			}
		},
		{
			"type": "Feature",
			"geometry": {
				"type": "Point",
				"coordinates": [121.4641503, 25.1173912]
			},
			"properties": {
				"name": "關渡宮借還書站",
				"address": "112臺北市北投區知行路360號",
				"tel": "2858-1281#166",
				"fax": ""
			}
		},
		{
			"type": "Feature",
			"geometry": {
				"type": "Point",
				"coordinates": [121.5107816, 25.0823049]
			},
			"properties": {
				"name": "葫蘆堵分館",
				"address": "111臺北市士林區延平北路5段136巷1號3-9樓",
				"tel": "2812-6513",
				"fax": "2812-7945"
			}
		},
		{
			"type": "Feature",
			"geometry": {
				"type": "Point",
				"coordinates": [121.533057, 25.1234023]
			},
			"properties": {
				"name": "天母分館",
				"address": "111臺北市士林區中山北路7段154巷6號3-4樓",
				"tel": "2873-6203",
				"fax": "2874-0114"
			}
		},
		{
			"type": "Feature",
			"geometry": {
				"type": "Point",
				"coordinates": [121.5182994, 25.0958292]
			},
			"properties": {
				"name": "士林分館臨時替代館",
				"address": "111臺北市士林區基河路363號2樓",
				"tel": "2834-0085",
				"fax": ""
			}
		},
		{
			"type": "Feature",
			"geometry": {
				"type": "Point",
				"coordinates": [121.5307658, 25.0960267]
			},
			"properties": {
				"name": "李科永紀念館",
				"address": "111臺北市士林區中正路15號",
				"tel": "2883-3453",
				"fax": "2883-6321"
			}
		},
		{
			"type": "Feature",
			"geometry": {
				"type": "Point",
				"coordinates": [121.5890863, 25.0693188]
			},
			"properties": {
				"name": "內湖分館",
				"address": "114臺北市內湖區民權東路6段99號6樓",
				"tel": "2791-8772",
				"fax": "2795-3876"
			}
		},
		{
			"type": "Feature",
			"geometry": {
				"type": "Point",
				"coordinates": [121.61261, 25.0674149]
			},
			"properties": {
				"name": "東湖分館",
				"address": "114臺北市內湖區五分街6號",
				"tel": "2632-3378",
				"fax": "2633-2654"
			}
		},
		{
			"type": "Feature",
			"geometry": {
				"type": "Point",
				"coordinates": [121.5772424, 25.0786852]
			},
			"properties": {
				"name": "西湖分館",
				"address": "114臺北市內湖區內湖路1段594號",
				"tel": "2797-3183",
				"fax": "2798-6483"
			}
		},
		{
			"type": "Feature",
			"geometry": {
				"type": "Point",
				"coordinates": [121.5666752, 25.0823815]
			},
			"properties": {
				"name": "西中分館",
				"address": "114臺北市內湖區內湖路1段285巷66號1-2樓",
				"tel": "8751-5497",
				"fax": "8751-9994"
			}
		},
		{
			"type": "Feature",
			"geometry": {
				"type": "Point",
				"coordinates": [121.5768498, 25.0498467]
			},
			"properties": {
				"name": "松山分館",
				"address": "105臺北市松山區八德路4段688號5-8樓",
				"tel": "2753-1875",
				"fax": "2749-3158"
			}
		},
		{
			"type": "Feature",
			"geometry": {
				"type": "Point",
				"coordinates": [121.5515189, 25.0571815]
			},
			"properties": {
				"name": "民生分館",
				"address": "105臺北市松山區敦化北路199巷5號4-5樓",
				"tel": "2713-8083",
				"fax": "2718-2145"
			}
		},
		{
			"type": "Feature",
			"geometry": {
				"type": "Point",
				"coordinates": [121.5629083, 25.0593151]
			},
			"properties": {
				"name": "三民分館",
				"address": "105臺北市松山區民生東路5段163-1號5-6樓",
				"tel": "2760-0408",
				"fax": "2756-4843"
			}
		},
		{
			"type": "Feature",
			"geometry": {
				"type": "Point",
				"coordinates": [121.5458399, 25.0484265]
			},
			"properties": {
				"name": "中崙分館",
				"address": "105臺北市松山區長安東路2段229號7-10樓",
				"tel": "8773-6858",
				"fax": "8773-6859"
			}
		},
		{
			"type": "Feature",
			"geometry": {
				"type": "Point",
				"coordinates": [121.551818, 25.054349]
			},
			"properties": {
				"name": "啟明分館",
				"address": "105臺北市松山區敦化北路155巷76號",
				"tel": "2514-8443",
				"fax": "2514-8428"
			}
		},
		{
			"type": "Feature",
			"geometry": {
				"type": "Point",
				"coordinates": [121.5775774, 25.0430691]
			},
			"properties": {
				"name": "永春分館",
				"address": "110臺北市信義區松山路294號3-4樓",
				"tel": "2760-9730",
				"fax": "2756-4867"
			}
		},
		{
			"type": "Feature",
			"geometry": {
				"type": "Point",
				"coordinates": [121.5611877, 25.0290753]
			},
			"properties": {
				"name": "三興分館",
				"address": "110臺北市信義區吳興街156巷6號4-5樓",
				"tel": "8732-1063",
				"fax": "8732-1064"
			}
		},
		{
			"type": "Feature",
			"geometry": {
				"type": "Point",
				"coordinates": [121.5688375, 25.0243196]
			},
			"properties": {
				"name": "六合分館",
				"address": "110臺北市信義區松仁路240巷19號3-5樓",
				"tel": "2729-2485",
				"fax": "2729-7193"
			}
		},
		{
			"type": "Feature",
			"geometry": {
				"type": "Point",
				"coordinates": [121.581939069651, 25.0375180417632]
			},
			"properties": {
				"name": "廣慈分館",
				"address": "110臺北市信義區福德街86號3-4樓 ",
				"tel": "2727-7872",
				"fax": "2727-7875"
			}
		},
		{
			"type": "Feature",
			"geometry": {
				"type": "Point",
				"coordinates": [121.6080403, 25.0549316]
			},
			"properties": {
				"name": "南港分館",
				"address": "115臺北市南港區南港路一段350號",
				"tel": "2782-5232",
				"fax": "2651-9838"
			}
		},
		{
			"type": "Feature",
			"geometry": {
				"type": "Point",
				"coordinates": [121.6240441, 25.0370335]
			},
			"properties": {
				"name": "舊莊分館",
				"address": "115臺北市南港區舊莊街1段91巷11號2-5樓",
				"tel": "2783-7212",
				"fax": "2783-4552"
			}
		},
		{
			"type": "Feature",
			"geometry": {
				"type": "Point",
				"coordinates": [121.5866015, 25.047646]
			},
			"properties": {
				"name": "龍華民眾閱覽室",
				"address": "115臺北市南港區東新街63巷8號",
				"tel": "2785-1740",
				"fax": "2651-9810"
			}
		},
		{
			"type": "Feature",
			"geometry": {
				"type": "Point",
				"coordinates": [121.6172717, 25.0446945]
			},
			"properties": {
				"name": "親子美育數位圖書館",
				"address": "115臺北市南港區研究院路2段61巷15號",
				"tel": "2651-8163",
				"fax": "2651-3730"
			}
		},
		{
			"type": "Feature",
			"geometry": {
				"type": "Point",
				"coordinates": [121.5944653, 25.0539922]
			},
			"properties": {
				"name": "北原借還書站",
				"address": "115臺北市南港區向陽路49號4樓",
				"tel": "2782-8740",
				"fax": ""
			}
		},
		{
			"type": "Feature",
			"geometry": {
				"type": "Point",
				"coordinates": [121.533568, 25.064444]
			},
			"properties": {
				"name": "中山分館",
				"address": "104臺北市中山區松江路367號8樓",
				"tel": "2502-6442",
				"fax": "2506-4599"
			}
		},
		{
			"type": "Feature",
			"geometry": {
				"type": "Point",
				"coordinates": [121.521014, 25.050231]
			},
			"properties": {
				"name": "長安分館",
				"address": "104臺北市中山區長安西路3號4樓",
				"tel": "2562-5540",
				"fax": "2521-7937"
			}
		},
		{
			"type": "Feature",
			"geometry": {
				"type": "Point",
				"coordinates": [121.546687, 25.0818499]
			},
			"properties": {
				"name": "大直分館",
				"address": "104臺北市中山區大直街25號3-5樓",
				"tel": "2533-6535",
				"fax": "2533-3932"
			}
		},
		{
			"type": "Feature",
			"geometry": {
				"type": "Point",
				"coordinates": [121.5271941, 25.0633695]
			},
			"properties": {
				"name": "恆安民眾閱覽室",
				"address": "104臺北市中山區民權東路1段71巷19號",
				"tel": "2593-5482",
				"fax": "2593-1505"
			}
		},
		{
			"type": "Feature",
			"geometry": {
				"type": "Point",
				"coordinates": [121.5023346, 25.0385256]
			},
			"properties": {
				"name": "龍山分館",
				"address": "108臺北市萬華區桂林路65巷6號",
				"tel": "2331-1497",
				"fax": "2389-2675"
			}
		},
		{
			"type": "Feature",
			"geometry": {
				"type": "Point",
				"coordinates": [121.4981146, 25.02273]
			},
			"properties": {
				"name": "東園分館",
				"address": "108臺北市萬華區東園街199號",
				"tel": "2307-0460",
				"fax": "2301-6572"
			}
		},
		{
			"type": "Feature",
			"geometry": {
				"type": "Point",
				"coordinates": [121.5017185, 25.0321933]
			},
			"properties": {
				"name": "西園分館",
				"address": "108臺北市萬華區興寧街6號3-6樓",
				"tel": "2306-9046",
				"fax": "2336-8232"
			}
		},
		{
			"type": "Feature",
			"geometry": {
				"type": "Point",
				"coordinates": [121.4957273, 25.0279247]
			},
			"properties": {
				"name": "萬華分館",
				"address": "108臺北市萬華區東園街19號5-7樓",
				"tel": "2339-1056",
				"fax": "2339-1062"
			}
		},
		{
			"type": "Feature",
			"geometry": {
				"type": "Point",
				"coordinates": [121.4954589, 25.0369298]
			},
			"properties": {
				"name": "柳鄉民眾閱覽室",
				"address": "108臺北市萬華區環河南路2段102號4樓",
				"tel": "2308-0586",
				"fax": "2336-8233"
			}
		},
		{
			"type": "Feature",
			"geometry": {
				"type": "Point",
				"coordinates": [121.5120921, 25.0591691]
			},
			"properties": {
				"name": "延平分館",
				"address": "103臺北市大同區保安街47號",
				"tel": "2552-8534",
				"fax": "2552-8544"
			}
		},
		{
			"type": "Feature",
			"geometry": {
				"type": "Point",
				"coordinates": [121.5132821, 25.0742632]
			},
			"properties": {
				"name": "大同分館",
				"address": "103臺北市大同區重慶北路3段318號",
				"tel": "2594-3236",
				"fax": "2599-1423"
			}
		},
		{
			"type": "Feature",
			"geometry": {
				"type": "Point",
				"coordinates": [121.5168404, 25.0570355]
			},
			"properties": {
				"name": "建成分館",
				"address": "103臺北市大同區民生西路198之20號4樓",
				"tel": "2558-2320",
				"fax": "2556-5360"
			}
		},
		{
			"type": "Feature",
			"geometry": {
				"type": "Point",
				"coordinates": [121.5151063, 25.066061]
			},
			"properties": {
				"name": "蘭州民眾閱覽室",
				"address": "103臺北市大同區昌吉街57號4樓之6",
				"tel": "2598-1387",
				"fax": "2585-8641"
			}
		},
		{
			"type": "Feature",
			"geometry": {
				"type": "Point",
				"coordinates": [121.538369, 25.029152]
			},
			"properties": {
				"name": "總館",
				"address": "106臺北市大安區建國南路2段125號",
				"tel": "2755-2823",
				"fax": "2703-3545"
			}
		},
		{
			"type": "Feature",
			"geometry": {
				"type": "Point",
				"coordinates": [121.544049, 25.0215769]
			},
			"properties": {
				"name": "道藩分館",
				"address": "106臺北市大安區辛亥路3段11號3樓",
				"tel": "2733-4031",
				"fax": "2739-0541"
			}
		},
		{
			"type": "Feature",
			"geometry": {
				"type": "Point",
				"coordinates": [121.5507726, 25.0161246]
			},
			"properties": {
				"name": "大安分館(已閉館)",
				"address": "106臺北市大安區辛亥路3段223號4-5樓",
				"tel": "2732-5422",
				"fax": "2377-9420"
			}
		},
		{
			"type": "Feature",
			"geometry": {
				"type": "Point",
				"coordinates": [121.555088, 25.0364085]
			},
			"properties": {
				"name": "延吉民眾閱覽室",
				"address": "106臺北市大安區延吉街236巷17號3-4樓",
				"tel": "2708-1964",
				"fax": "2705-2653"
			}
		},
		{
			"type": "Feature",
			"geometry": {
				"type": "Point",
				"coordinates": [121.5452719, 25.0254345]
			},
			"properties": {
				"name": "成功民眾閱覽室",
				"address": "106臺北市大安區和平東路2段311巷29號4樓",
				"tel": "2701-3604",
				"fax": "2754-2701"
			}
		},
		{
			"type": "Feature",
			"geometry": {
				"type": "Point",
				"coordinates": [121.5294668, 25.0285371]
			},
			"properties": {
				"name": "龍安民眾閱覽室",
				"address": "106臺北市大安區永康街60號2-3樓",
				"tel": "2394-5485",
				"fax": "2391-0884"
			}
		},
		{
			"type": "Feature",
			"geometry": {
				"type": "Point",
				"coordinates": [121.5238083, 25.0226979]
			},
			"properties": {
				"name": "王貫英紀念館",
				"address": "100臺北市中正區汀州路2段265號",
				"tel": "2367-8734",
				"fax": "2367-0743"
			}
		},
		{
			"type": "Feature",
			"geometry": {
				"type": "Point",
				"coordinates": [121.5312772, 25.0400821]
			},
			"properties": {
				"name": "城中分館",
				"address": "100臺北市中正區濟南路2段46號3樓",
				"tel": "2393-8274",
				"fax": "2394-7183"
			}
		},
		{
			"type": "Feature",
			"geometry": {
				"type": "Point",
				"coordinates": [121.5068964, 25.0283965]
			},
			"properties": {
				"name": "南機場借還書站",
				"address": "100臺北市中正區中華路2段315巷16號1樓",
				"tel": "2303-2436",
				"fax": ""
			}
		},
		{
			"type": "Feature",
			"geometry": {
				"type": "Point",
				"coordinates": [121.5363451, 25.0036073]
			},
			"properties": {
				"name": "景美分館",
				"address": "116臺北市文山區羅斯福路5段176巷50號2-4樓",
				"tel": "2932-8457",
				"fax": "2930-3152"
			}
		},
		{
			"type": "Feature",
			"geometry": {
				"type": "Point",
				"coordinates": [121.56916, 24.988513]
			},
			"properties": {
				"name": "木柵分館",
				"address": "116臺北市文山區保儀路13巷3號3-4樓",
				"tel": "2939-7520",
				"fax": "2936-2631"
			}
		},
		{
			"type": "Feature",
			"geometry": {
				"type": "Point",
				"coordinates": [121.542632, 24.98859]
			},
			"properties": {
				"name": "永建分館(已閉館)",
				"address": "116臺北市文山區木柵路1段177號3-4樓",
				"tel": "2236-7448",
				"fax": "2236-2443"
			}
		},
		{
			"type": "Feature",
			"geometry": {
				"type": "Point",
				"coordinates": [121.576501, 24.988685]
			},
			"properties": {
				"name": "萬興分館",
				"address": "116臺北市文山區萬壽路27號4-5樓",
				"tel": "2234-5501",
				"fax": "2937-5155"
			}
		},
		{
			"type": "Feature",
			"geometry": {
				"type": "Point",
				"coordinates": [121.5515751, 25.0014966]
			},
			"properties": {
				"name": "文山分館",
				"address": "116臺北市文山區興隆路2段160號7-9樓",
				"tel": "2931-5339",
				"fax": "2931-5486"
			}
		},
		{
			"type": "Feature",
			"geometry": {
				"type": "Point",
				"coordinates": [121.5563143, 24.9796285]
			},
			"properties": {
				"name": "力行分館",
				"address": "116臺北市文山區一壽街22號5-8樓",
				"tel": "8661-2196",
				"fax": "8661-2197"
			}
		},
		{
			"type": "Feature",
			"geometry": {
				"type": "Point",
				"coordinates": [121.5419019, 24.9899285]
			},
			"properties": {
				"name": "景新分館",
				"address": "116臺北市文山區景後街151號5-10樓",
				"tel": "2933-1244",
				"fax": "2933-5340"
			}
		},
		{
			"type": "Feature",
			"geometry": {
				"type": "Point",
				"coordinates": [121.5608752, 24.9875252]
			},
			"properties": {
				"name": "安康民眾閱覽室",
				"address": "116臺北市文山區興隆路4段105巷1號4樓",
				"tel": "2939-0180",
				"fax": "2936-9386"
			}
		},
		{
			"type": "Feature",
			"geometry": {
				"type": "Point",
				"coordinates": [121.569178, 25.002215]
			},
			"properties": {
				"name": "萬芳民眾閱覽室",
				"address": "116臺北市文山區萬美街1段25號1-2樓",
				"tel": "2230-5287",
				"fax": "2230-5233"
			}
		},
		{
			"type": "Feature",
			"geometry": {
				"type": "Point",
				"coordinates": [121.5092303, 25.0448779]
			},
			"properties": {
				"name": "西門智慧館",
				"address": "100臺北市中正區中華路1段51-1號",
				"tel": "",
				"fax": ""
			}
		},
		{
			"type": "Feature",
			"geometry": {
				"type": "Point",
				"coordinates": [121.549643, 25.063718]
			},
			"properties": {
				"name": "松山機場智慧館",
				"address": "105臺北市松山區敦化北路338號B1",
				"tel": "",
				"fax": ""
			}
		},
		{
			"type": "Feature",
			"geometry": {
				"type": "Point",
				"coordinates": [121.5037379, 25.0249363]
			},
			"properties": {
				"name": "太陽圖書館",
				"address": "108臺北市萬華區青年路65號",
				"tel": "",
				"fax": ""
			}
		},
		{
			"type": "Feature",
			"geometry": {
				"type": "Point",
				"coordinates": [121.5178692, 25.086145]
			},
			"properties": {
				"name": "百齡智慧館",
				"address": "111臺北市士林區福港街205號",
				"tel": "",
				"fax": ""
			}
		},
		{
			"type": "Feature",
			"geometry": {
				"type": "Point",
				"coordinates": [121.5463538, 25.0419631]
			},
			"properties": {
				"name": "東區地下街智慧館",
				"address": "106臺北市大安區大安路1段77號",
				"tel": "",
				"fax": ""
			}
		},
		{
			"type": "Feature",
			"geometry": {
				"type": "Point",
				"coordinates": [121.5103858, 25.0251201]
			},
			"properties": {
				"name": "古亭智慧圖書館",
				"address": "116臺北市中正區寧波西街286號",
				"tel": "",
				"fax": ""
			}
		},
		{
			"type": "Feature",
			"geometry": {
				"type": "Point",
				"coordinates": [121.4776269, 25.1058807]
			},
			"properties": {
				"name": "社子島智慧圖書館",
				"address": "111臺北市士林區延平北路9段80號2樓",
				"tel": "",
				"fax": ""
			}
		}
	]
}
